[{
  "type": "Feature",
  "geometry": {
    "type": "Point",
    "coordinates": [7.406456,46.947613]
  },
  "properties": {
    "name": "Bern"
  }
},
{
  "type": "Feature",
  "geometry": {
    "type": "Point",
    "coordinates": [8.55,47.366667]
  },
  "properties": {
    "name": "Zürich"
  }
},
  {
    "type": "Feature",
    "geometry": {
      "type": "Point",
      "coordinates": [6.141394,46.205772]
    },
    "properties": {
      "name": "Géneve"
    }
  },
  {
    "type": "Feature",
    "geometry": {
      "type": "Point",
      "coordinates": [7.580530,47.559662]
    },
    "properties": {
      "name": "Basel"
    }
  },
  {
    "type": "Feature",
    "geometry": {
      "type": "Point",
      "coordinates": [6.652308,46.552044]
    },
    "properties": {
      "name": "Lausanne"
    }
  },
  {
    "type": "Feature",
    "geometry": {
      "type": "Point",
      "coordinates": [8.325215,47.047134]
    },
    "properties": {
      "name": "Luzern"
    }
  },
  {
    "type": "Feature",
    "geometry": {
      "type": "Point",
      "coordinates": [9.375949,47.422138]
    },
    "properties": {
      "name": "St. Gallen"
    }
  },
  {
    "type": "Feature",
    "geometry": {
      "type": "Point",
      "coordinates": [9.022668,46.199932]
    },
    "properties": {
      "name": "Bellinzona"
    }
  },
  {
    "type": "Feature",
    "geometry": {
      "type": "Point",
      "coordinates": [7.159744,46.804180]
    },
    "properties": {
      "name": "Fribourg"
    }
  },
  {
    "type": "Feature",
    "geometry": {
      "type": "Point",
      "coordinates": [8.641222,47.715698]
    },
    "properties": {
      "name": "Schaffhausen"
    }
  },
  {
    "type": "Feature",
    "geometry": {
      "type": "Point",
      "coordinates": [9.530140,46.852112]
    },
    "properties": {
      "name": "Chur"
    }
  },
  {
    "type": "Feature",
    "geometry": {
      "type": "Point",
      "coordinates": [6.938099,47.009418]
    },
    "properties": {
      "name": "Neuchâtel"
    }
  },
  {
    "type": "Feature",
    "geometry": {
      "type": "Point",
      "coordinates": [7.365986,46.230434]
    },
    "properties": {
      "name": "Sion"
    }
  },
  {
    "type": "Feature",
    "geometry": {
      "type": "Point",
      "coordinates": [8.048300,47.388752]
    },
    "properties": {
      "name": "Aarau"
    }
  },
  {
    "type": "Feature",
    "geometry": {
      "type": "Point",
      "coordinates": [7.622171,46.746578]
    },
    "properties": {
      "name": "Thun"
    }
  },
  {
    "type": "Feature",
    "geometry": {
      "type": "Point",
      "coordinates": [7.948876,46.296902]
    },
    "properties": {
      "name": "Brig"
    }
  }]